[
    {
        "id": "1",
        "province_id": "1",
        "name": "Bhojpur",
        "name_np": "भोजपुर",
        "lat": 27.17,
        "lng": 87.05,
        "area": 1507,
        "population": 182459
    },
    {
        "id": "2",
        "province_id": "1",
        "name": "Dhankuta",
        "name_np": "धनकुटा",
        "lat": 27.0,
        "lng": 87.35,
        "area": 891,
        "population": 163412
    },
    {
        "id": "3",
        "province_id": "1",
        "name": "Ilam",
        "name_np": "इलाम",
        "lat": 26.91,
        "lng": 87.93,
        "area": 1703,
        "population": 290254
    },
    {
        "id": "4",
        "province_id": "1",
        "name": "Jhapa",
        "name_np": "झापा",
        "lat": 26.6,
        "lng": 88.0,
        "area": 1606,
        "population": 812650
    },
    {
        "id": "5",
        "province_id": "1",
        "name": "Khotang",
        "name_np": "खोटाङ",
        "lat": 27.2,
        "lng": 86.8,
        "area": 1592,
        "population": 206312
    },
    {
        "id": "6",
        "province_id": "1",
        "name": "Morang",
        "is_capital": true,
        "name_np": "मोरङ",
        "lat": 26.65,
        "lng": 87.35,
        "area": 1855,
        "population": 1130470
    },
    {
        "id": "7",
        "province_id": "1",
        "name": "Okhaldhunga",
        "name_np": "ओखलढुंगा",
        "lat": 27.31,
        "lng": 86.5,
        "area": 1074,
        "population": 147984
    },
    {
        "id": "8",
        "province_id": "1",
        "name": "Panchthar",
        "name_np": "पाँचथर",
        "lat": 27.1,
        "lng": 87.8,
        "area": 1241,
        "population": 191817
    },
    {
        "id": "9",
        "province_id": "1",
        "name": "Sankhuwasabha",
        "name_np": "संखुवासभा",
        "lat": 27.6,
        "lng": 87.3,
        "area": 3480,
        "population": 158742
    },
    {
        "id": "10",
        "province_id": "1",
        "name": "Solukhumbu",
        "name_np": "सोलुखुम्बु",
        "lat": 27.67,
        "lng": 86.67,
        "area": 3312,
        "population": 105886
    },
    {
        "id": "11",
        "province_id": "1",
        "name": "Sunsari",
        "name_np": "सुनसरी",
        "lat": 26.65,
        "lng": 87.15,
        "area": 1257,
        "population": 926962
    },
    {
        "id": "12",
        "province_id": "1",
        "name": "Taplejung",
        "name_np": "ताप्लेजुङ",
        "lat": 27.35,
        "lng": 87.67,
        "area": 3646,
        "population": 127461
    },
    {
        "id": "13",
        "province_id": "1",
        "name": "Tehrathum",
        "name_np": "तेह्रथुम",
        "lat": 27.12,
        "lng": 87.6,
        "area": 679,
        "population": 101577
    },
    {
        "id": "14",
        "province_id": "1",
        "name": "Udayapur",
        "name_np": "उदयपुर",
        "lat": 26.88,
        "lng": 86.7,
        "area": 2063,
        "population": 317532
    },
    {
        "id": "15",
        "province_id": "2",
        "name": "Bara",
        "name_np": "बारा",
        "lat": 27.0,
        "lng": 85.0,
        "area": 1190,
        "population": 743758
    },
    {
        "id": "16",
        "province_id": "2",
        "name": "Dhanusha",
        "name_np": "धनुषा",
        "lat": 26.83,
        "lng": 86.0,
        "area": 1180,
        "is_capital": true,
        "population": 838084
    },
    {
        "id": "17",
        "province_id": "2",
        "name": "Mahottari",
        "name_np": "महोत्तरी",
        "lat": 26.65,
        "lng": 85.9,
        "area": 1002,
        "population": 627580
    },
    {
        "id": "18",
        "province_id": "2",
        "name": "Parsa",
        "name_np": "पर्सा",
        "lat": 27.0,
        "lng": 84.9,
        "area": 1353,
        "population": 649397
    },
    {
        "id": "19",
        "province_id": "2",
        "name": "Rautahat",
        "name_np": "रौतहट",
        "lat": 26.95,
        "lng": 85.3,
        "area": 1126,
        "population": 686722
    },
    {
        "id": "20",
        "province_id": "2",
        "name": "Saptari",
        "name_np": "सप्तरी",
        "lat": 26.65,
        "lng": 86.75,
        "area": 1363,
        "population": 639284
    },
    {
        "id": "21",
        "province_id": "2",
        "name": "Sarlahi",
        "name_np": "सर्लाही",
        "lat": 26.98,
        "lng": 85.55,
        "area": 1259,
        "population": 769729
    },
    {
        "id": "22",
        "province_id": "2",
        "name": "Siraha",
        "name_np": "सिराहा",
        "lat": 26.65,
        "lng": 86.2,
        "area": 1188,
        "population": 637328
    },
    {
        "id": "23",
        "province_id": "3",
        "name": "Bhaktapur",
        "name_np": "भक्तपुर",
        "lat": 27.67,
        "lng": 85.43,
        "area": 119,
        "population": 304651
    },
    {
        "id": "24",
        "province_id": "3",
        "name": "Chitwan",
        "name_np": "चितवन",
        "lat": 27.53,
        "lng": 84.46,
        "area": 2218,
        "population": 719859
    },
    {
        "id": "25",
        "province_id": "3",
        "name": "Dhading",
        "name_np": "धादिङ",
        "lat": 27.9,
        "lng": 84.9,
        "area": 1926,
        "population": 336067
    },
    {
        "id": "26",
        "province_id": "3",
        "name": "Dolakha",
        "name_np": "दोलखा",
        "lat": 27.67,
        "lng": 86.05,
        "area": 2191,
        "population": 186557
    },
    {
        "id": "27",
        "province_id": "3",
        "name": "Kathmandu",
        "name_np": "काठमाण्डौ",
        "lat": 27.7,
        "lng": 85.3,
        "area": 395,
        "population": 2049541
    },
    {
        "id": "28",
        "province_id": "3",
        "name": "Kavrepalanchok",
        "name_np": "काभ्रेपलाञ्चोक",
        "lat": 27.6,
        "lng": 85.6,
        "area": 1396,
        "population": 381937
    },
    {
        "id": "29",
        "province_id": "3",
        "name": "Lalitpur",
        "name_np": "ललितपुर",
        "lat": 27.67,
        "lng": 85.32,
        "area": 385,
        "population": 552583
    },
    {
        "id": "30",
        "province_id": "3",
        "name": "Makawanpur",
        "name_np": "मकवानपुर",
        "lat": 27.42,
        "lng": 85.05,
        "area": 2426,
        "is_capital": true,
        "population": 420477
    },
    {
        "id": "31",
        "province_id": "3",
        "name": "Nuwakot",
        "name_np": "नुवाकोट",
        "lat": 27.9,
        "lng": 85.1,
        "area": 1121,
        "population": 262326
    },
    {
        "id": "32",
        "province_id": "3",
        "name": "Ramechhap",
        "name_np": "रामेछाप",
        "lat": 27.33,
        "lng": 86.0,
        "area": 1546,
        "population": 210550
    },
    {
        "id": "33",
        "province_id": "3",
        "name": "Rasuwa",
        "name_np": "रसुवा",
        "lat": 28.0,
        "lng": 85.3,
        "area": 1544,
        "population": 43500
    },
    {
        "id": "34",
        "province_id": "3",
        "name": "Sindhuli",
        "name_np": "सिन्धुली",
        "lat": 27.2,
        "lng": 85.95,
        "area": 2491,
        "population": 296192
    },
    {
        "id": "35",
        "province_id": "3",
        "name": "Sindhupalchok",
        "name_np": "सिन्धुपाल्चोक",
        "lat": 27.8,
        "lng": 85.7,
        "area": 2542,
        "population": 287798
    },
    {
        "id": "36",
        "province_id": "4",
        "name": "Baglung",
        "name_np": "बागलुङ",
        "lat": 28.27,
        "lng": 83.61,
        "area": 1784,
        "population": 268613
    },
    {
        "id": "37",
        "province_id": "4",
        "name": "Gorkha",
        "name_np": "गोरखा",
        "lat": 28.0,
        "lng": 84.63,
        "area": 3610,
        "population": 252201
    },
    {
        "id": "38",
        "province_id": "4",
        "name": "Kaski",
        "name_np": "कास्की",
        "lat": 28.2,
        "lng": 83.98,
        "area": 2017,
        "is_capital": true,
        "population": 492098
    },
    {
        "id": "39",
        "province_id": "4",
        "name": "Lamjung",
        "name_np": "लमजुङ",
        "lat": 28.15,
        "lng": 84.4,
        "area": 1692,
        "population": 167724
    },
    {
        "id": "40",
        "province_id": "4",
        "name": "Manang",
        "name_np": "मनाङ",
        "lat": 28.65,
        "lng": 84.0,
        "area": 2246,
        "population": 5423
    },
    {
        "id": "41",
        "province_id": "4",
        "name": "Mustang",
        "name_np": "मुस्ताङ",
        "lat": 28.83,
        "lng": 83.78,
        "area": 3573,
        "population": 13834
    },
    {
        "id": "42",
        "province_id": "4",
        "name": "Myagdi",
        "name_np": "म्याग्दी",
        "lat": 28.38,
        "lng": 83.57,
        "area": 2297,
        "population": 107372
    },
    {
        "id": "43",
        "province_id": "4",
        "name": "Nawalpur",
        "name_np": "नवलपुर",
        "lat": 27.72,
        "lng": 84.12,
        "area": 1043,
        "population": 321058
    },
    {
        "id": "44",
        "province_id": "4",
        "name": "Parbat",
        "name_np": "पर्वत",
        "lat": 28.22,
        "lng": 83.7,
        "area": 494,
        "population": 157400
    },
    {
        "id": "45",
        "province_id": "4",
        "name": "Syangja",
        "name_np": "स्याङ्जा",
        "lat": 28.03,
        "lng": 83.87,
        "area": 1164,
        "population": 289148
    },
    {
        "id": "46",
        "province_id": "4",
        "name": "Tanahun",
        "name_np": "तनहुँ",
        "lat": 27.92,
        "lng": 84.25,
        "area": 1546,
        "population": 323288
    },
    {
        "id": "47",
        "province_id": "5",
        "name": "Arghakhanchi",
        "name_np": "अर्घाखाँची",
        "lat": 27.98,
        "lng": 83.2,
        "area": 1193,
        "population": 197632
    },
    {
        "id": "48",
        "province_id": "5",
        "name": "Banke",
        "name_np": "बाँके",
        "lat": 28.05,
        "lng": 81.63,
        "area": 2337,
        "population": 609580
    },
    {
        "id": "49",
        "province_id": "5",
        "name": "Bardiya",
        "name_np": "बर्दिया",
        "lat": 28.25,
        "lng": 81.5,
        "area": 2025,
        "population": 548084
    },
    {
        "id": "50",
        "province_id": "5",
        "name": "Dang",
        "name_np": "दाङ",
        "lat": 28.0,
        "lng": 82.3,
        "area": 2955,
        "is_capital": true,
        "population": 548141
    },
    {
        "id": "51",
        "province_id": "5",
        "name": "Eastern Rukum",
        "name_np": "पूर्व रुकुम",
        "lat": 28.63,
        "lng": 82.42,
        "area": 1161,
        "population": 53018
    },
    {
        "id": "52",
        "province_id": "5",
        "name": "Gulmi",
        "name_np": "गुल्मी",
        "lat": 28.07,
        "lng": 83.25,
        "area": 1149,
        "population": 246836
    },
    {
        "id": "53",
        "province_id": "5",
        "name": "Kapilvastu",
        "name_np": "कपिलवस्तु",
        "lat": 27.55,
        "lng": 83.05,
        "area": 1738,
        "population": 686739
    },
    {
        "id": "54",
        "province_id": "5",
        "name": "Palpa",
        "name_np": "पाल्पा",
        "lat": 27.87,
        "lng": 83.55,
        "area": 1373,
        "population": 234615
    },
    {
        "id": "55",
        "province_id": "5",
        "name": "Parasi",
        "name_np": "परासी",
        "lat": 27.52,
        "lng": 83.66,
        "area": 634,
        "population": 331904
    },
    {
        "id": "56",
        "province_id": "5",
        "name": "Pyuthan",
        "name_np": "प्यूठान",
        "lat": 28.0,
        "lng": 82.88,
        "area": 1309,
        "population": 226796
    },
    {
        "id": "57",
        "province_id": "5",
        "name": "Rolpa",
        "name_np": "रोल्पा",
        "lat": 28.27,
        "lng": 82.9,
        "area": 1879,
        "population": 236226
    },
    {
        "id": "58",
        "province_id": "5",
        "name": "Rupandehi",
        "name_np": "रूपन्देही",
        "lat": 27.65,
        "lng": 83.38,
        "area": 1360,
        "population": 1120783
    },
    {
        "id": "59",
        "province_id": "6",
        "name": "Dolpa",
        "name_np": "डोल्पा",
        "lat": 29.13,
        "lng": 83.59,
        "area": 7889,
        "population": 36498
    },
    {
        "id": "60",
        "province_id": "6",
        "name": "Humla",
        "name_np": "हुम्ला",
        "lat": 29.96,
        "lng": 81.82,
        "area": 5655,
        "population": 50928
    },
    {
        "id": "61",
        "province_id": "6",
        "name": "Jajarkot",
        "name_np": "जाजरकोट",
        "lat": 28.7,
        "lng": 82.18,
        "area": 2230,
        "population": 171304
    },
    {
        "id": "62",
        "province_id": "6",
        "name": "Jumla",
        "name_np": "जुम्ला",
        "lat": 29.27,
        "lng": 82.18,
        "area": 2531,
        "population": 108921
    },
    {
        "id": "63",
        "province_id": "6",
        "name": "Kalikot",
        "name_np": "कालिकोट",
        "lat": 29.13,
        "lng": 81.63,
        "area": 1741,
        "population": 136948
    },
    {
        "id": "64",
        "province_id": "6",
        "name": "Mugu",
        "name_np": "मुगु",
        "lat": 29.55,
        "lng": 82.38,
        "area": 3535,
        "population": 55886
    },
    {
        "id": "65",
        "province_id": "6",
        "name": "Western Rukum",
        "name_np": "पश्चिम रुकुम",
        "lat": 28.63,
        "lng": 82.25,
        "area": 1213,
        "population": 154272
    },
    {
        "id": "66",
        "province_id": "6",
        "name": "Salyan",
        "name_np": "सल्यान",
        "lat": 28.38,
        "lng": 82.17,
        "area": 1462,
        "population": 241716
    },
    {
        "id": "67",
        "province_id": "6",
        "name": "Surkhet",
        "name_np": "सुर्खेत",
        "lat": 28.6,
        "lng": 81.63,
        "area": 2451,
        "is_capital": true,
        "population": 417776
    },
    {
        "id": "68",
        "province_id": "6",
        "name": "Dailekh",
        "name_np": "दैलेख",
        "lat": 28.84,
        "lng": 81.71,
        "area": 1505,
        "population": 261770
    },
    {
        "id": "69",
        "province_id": "7",
        "name": "Achham",
        "name_np": "अछाम",
        "lat": 29.0,
        "lng": 81.3,
        "area": 1692,
        "population": 250117
    },
    {
        "id": "70",
        "province_id": "7",
        "name": "Baitadi",
        "name_np": "बैतडी",
        "lat": 29.53,
        "lng": 80.58,
        "area": 1519,
        "population": 250898
    },
    {
        "id": "71",
        "province_id": "7",
        "name": "Bajhang",
        "name_np": "बझाङ",
        "lat": 29.64,
        "lng": 81.21,
        "area": 3422,
        "population": 195159
    },
    {
        "id": "72",
        "province_id": "7",
        "name": "Bajura",
        "name_np": "बाजुरा",
        "lat": 29.53,
        "lng": 81.48,
        "area": 2188,
        "population": 138523
    },
    {
        "id": "73",
        "province_id": "7",
        "name": "Dadeldhura",
        "name_np": "डडेलधुरा",
        "lat": 29.3,
        "lng": 80.58,
        "area": 1502,
        "population": 142094
    },
    {
        "id": "74",
        "province_id": "7",
        "name": "Darchula",
        "name_np": "दार्चुला",
        "lat": 30.07,
        "lng": 80.58,
        "area": 2322,
        "population": 142094
    },
    {
        "id": "75",
        "province_id": "7",
        "name": "Doti",
        "name_np": "डोटी",
        "lat": 29.27,
        "lng": 80.95,
        "area": 2025,
        "population": 211746
    },
    {
        "id": "76",
        "province_id": "7",
        "name": "Kailali",
        "name_np": "कैलाली",
        "lat": 28.52,
        "lng": 80.58,
        "area": 3235,
        "is_capital": true,
        "population": 911155
    },
    {
        "id": "77",
        "province_id": "7",
        "name": "Kanchanpur",
        "name_np": "कञ्चनपुर",
        "lat": 28.85,
        "lng": 80.3,
        "area": 1610,
        "population": 545707
    }
]
